{
	"locations": [
		{
			"city": "Moscow",
			"x": 842.1120941795846,
			"y": 336.4451187679207,
			"lng": 37.6175,
			"lat": 55.7506
		},
		{
			"city": "Istanbul",
			"x": 729.6820159403334,
			"y": 599.9158620092394,
			"lng": 28.955,
			"lat": 41.0136
		},
		{
			"city": "London",
			"x": 352.22195817490496,
			"y": 420.66647318077605,
			"lng": -0.1275,
			"lat": 51.5072
		},
		{
			"city": "Paris",
			"x": 384.40583869552506,
			"y": 469.3481881574098,
			"lng": 2.3522,
			"lat": 48.8567
		},
		{
			"city": "Madrid",
			"x": 305.81186019303897,
			"y": 609.1718034512892,
			"lng": -3.7033,
			"lat": 40.4169
		},
		{
			"city": "Ankara",
			"x": 780.2349919567125,
			"y": 616.6638758819137,
			"lng": 32.85,
			"lat": 39.93
		},
		{
			"city": "Saint Petersburg",
			"x": 747.250310763381,
			"y": 243.82827139541416,
			"lng": 30.3086,
			"lat": 59.9375
		},
		{
			"city": "Barcelona",
			"x": 382.2136955250073,
			"y": 594.1390253775887,
			"lng": 2.1833,
			"lat": 41.3833
		},
		{
			"city": "Berlin",
			"x": 527.8594801111435,
			"y": 401.31810710808566,
			"lng": 13.405,
			"lat": 52.52
		},
		{
			"city": "Bursa",
			"x": 730.915015355367,
			"y": 612.7729840937209,
			"lng": 29.05,
			"lat": 40.1833
		},
		{
			"city": "Athens",
			"x": 661.8423881251828,
			"y": 646.0868827429304,
			"lng": 23.7281,
			"lat": 37.9842
		},
		{
			"city": "İzmir",
			"x": 706.1252376425855,
			"y": 639.5666209427322,
			"lng": 27.14,
			"lat": 38.42
		},
		{
			"city": "Kyiv",
			"x": 750.0368894413571,
			"y": 440.4096231552377,
			"lng": 30.5233,
			"lat": 50.45
		},
		{
			"city": "Stuttgart",
			"x": 473.023453495174,
			"y": 470.76234995323125,
			"lng": 9.18,
			"lat": 48.7775
		},
		{
			"city": "Rome",
			"x": 515.8903005264697,
			"y": 586.1188691290105,
			"lng": 12.4828,
			"lat": 41.8931
		},
		{
			"city": "Munich",
			"x": 504.1080176952325,
			"y": 482.10895584816683,
			"lng": 11.575,
			"lat": 48.1375
		},
		{
			"city": "Birmingham",
			"x": 329.1843375255923,
			"y": 402.09064414042473,
			"lng": -1.9025,
			"lat": 52.48
		},
		{
			"city": "Hamburg",
			"x": 483.6661852880959,
			"y": 381.17811078984244,
			"lng": 10.0,
			"lat": 53.55
		},
		{
			"city": "Bucharest",
			"x": 692.6777566539923,
			"y": 545.177517981606,
			"lng": 26.1039,
			"lat": 44.4325
		},
		{
			"city": "Konya",
			"x": 775.4756142146825,
			"y": 647.8382265016689,
			"lng": 32.4833,
			"lat": 37.8667
		},
		{
			"city": "Vienna",
			"x": 566.3744881544311,
			"y": 480.8607425252817,
			"lng": 16.3725,
			"lat": 48.2083
		},
		{
			"city": "Gaziantep",
			"x": 839.0192124890317,
			"y": 659.7463857435898,
			"lng": 37.3792,
			"lat": 37.0628
		},
		{
			"city": "Warsaw",
			"x": 626.5786048552208,
			"y": 406.9031600964031,
			"lng": 21.0111,
			"lat": 52.23
		},
		{
			"city": "Minsk",
			"x": 711.5582224334601,
			"y": 374.21102239960794,
			"lng": 27.5586,
			"lat": 53.9006
		},
		{
			"city": "Tilburg",
			"x": 419.95386077800526,
			"y": 419.72146859346265,
			"lng": 5.0911,
			"lat": 51.5572
		},
		{
			"city": "Diyarbakır",
			"x": 876.1493675051183,
			"y": 647.1931632369683,
			"lng": 40.24,
			"lat": 37.91
		},
		{
			"city": "Adana",
			"x": 812.3098493711611,
			"y": 660.671290328808,
			"lng": 35.3213,
			"lat": 37.0
		},
		{
			"city": "Budapest",
			"x": 601.0061969874232,
			"y": 493.3010647983689,
			"lng": 19.0408,
			"lat": 47.4983
		},
		{
			"city": "Valencia",
			"x": 348.9914997075169,
			"y": 623.6932244562856,
			"lng": -0.3764,
			"lat": 39.47
		},
		{
			"city": "Amsterdam",
			"x": 417.39051988885643,
			"y": 404.15758601673156,
			"lng": 4.8936,
			"lat": 52.3728
		},
		{
			"city": "Kayseri",
			"x": 814.4669494004095,
			"y": 635.0175920443144,
			"lng": 35.4875,
			"lat": 38.7225
		},
		{
			"city": "Kharkiv",
			"x": 824.11809008482,
			"y": 448.8166217677183,
			"lng": 36.2311,
			"lat": 49.9925
		},
		{
			"city": "Sofia",
			"x": 656.567746417081,
			"y": 573.326303389429,
			"lng": 23.3217,
			"lat": 42.6979
		},
		{
			"city": "Prague",
			"x": 541.0512759578825,
			"y": 447.0775228117159,
			"lng": 14.4214,
			"lat": 50.0875
		},
		{
			"city": "Copenhagen",
			"x": 516.911743199766,
			"y": 337.9082504251661,
			"lng": 12.5615,
			"lat": 55.6805
		},
		{
			"city": "Helsinki",
			"x": 677.5391196256214,
			"y": 238.33330622613767,
			"lng": 24.9375,
			"lat": 60.1708
		},
		{
			"city": "Samsun",
			"x": 825.4484315589352,
			"y": 595.5952958106633,
			"lng": 36.3336,
			"lat": 41.2903
		},
		{
			"city": "Milan",
			"x": 473.1532429072828,
			"y": 527.9926327863191,
			"lng": 9.19,
			"lat": 45.4669
		},
		{
			"city": "Antalya",
			"x": 752.4276104124012,
			"y": 662.327727926584,
			"lng": 30.7075,
			"lat": 36.8874
		},
		{
			"city": "Kazan",
			"x": 991.2582992102953,
			"y": 335.4877576554113,
			"lng": 49.1089,
			"lat": 55.7964
		},
		{
			"city": "Brussels",
			"x": 410.36761479964906,
			"y": 433.0538347392512,
			"lng": 4.3525,
			"lat": 50.8467
		},
		{
			"city": "Nizhniy Novgorod",
			"x": 925.0475285171101,
			"y": 324.3157262370148,
			"lng": 44.0075,
			"lat": 56.3269
		},
		{
			"city": "Belgrade",
			"x": 619.3856756361508,
			"y": 538.8124943730783,
			"lng": 20.4569,
			"lat": 44.8178
		},
		{
			"city": "Krasnodar",
			"x": 859.6232816613044,
			"y": 535.2339545566401,
			"lng": 38.9667,
			"lat": 45.0333
		},
		{
			"city": "Rostov",
			"x": 869.2705286633518,
			"y": 498.0881017555222,
			"lng": 39.71,
			"lat": 47.2225
		},
		{
			"city": "Tbilisi",
			"x": 935.2359973676512,
			"y": 588.80981555683,
			"lng": 44.7925,
			"lat": 41.7225
		},
		{
			"city": "Yerevan",
			"x": 931.6265538169055,
			"y": 612.802223569914,
			"lng": 44.5144,
			"lat": 40.1814
		},
		{
			"city": "Sevilla",
			"x": 276.1329153261188,
			"y": 654.9150096980234,
			"lng": -5.99,
			"lat": 37.39
		},
		{
			"city": "Cologne",
			"x": 444.11675563030127,
			"y": 431.38192028309766,
			"lng": 6.9528,
			"lat": 50.9364
		},
		{
			"city": "Voronezh",
			"x": 862.7888454226381,
			"y": 417.55348753494627,
			"lng": 39.2106,
			"lat": 51.6717
		},
		{
			"city": "Mersin",
			"x": 803.3803378180753,
			"y": 663.6117694836221,
			"lng": 34.6333,
			"lat": 36.8
		},
		{
			"city": "Odesa",
			"x": 752.4353977771277,
			"y": 510.6482711370618,
			"lng": 30.7081,
			"lat": 46.492
		},
		{
			"city": "Volgograd",
			"x": 931.6304474992687,
			"y": 471.9907855819322,
			"lng": 44.5147,
			"lat": 48.7086
		},
		{
			"city": "Stockholm",
			"x": 588.207663059374,
			"y": 258.0152823460363,
			"lng": 18.0547,
			"lat": 59.3275
		},
		{
			"city": "Bordeaux",
			"x": 346.34898727698163,
			"y": 538.4444659720948,
			"lng": -0.58,
			"lat": 44.84
		},
		{
			"city": "Esenyurt",
			"x": 726.1128071073413,
			"y": 599.5948277998026,
			"lng": 28.68,
			"lat": 41.0342
		},
		{
			"city": "Dnipro",
			"x": 808.6588732085404,
			"y": 476.27622858933114,
			"lng": 35.04,
			"lat": 48.4675
		},
		{
			"city": "Málaga",
			"x": 296.50985302720096,
			"y": 664.794610365439,
			"lng": -4.42,
			"lat": 36.7194
		},
		{
			"city": "Çankaya",
			"x": 780.6970422638196,
			"y": 616.7497333417185,
			"lng": 32.8856,
			"lat": 39.9244
		},
		{
			"city": "Keçiören",
			"x": 780.4517402749341,
			"y": 615.5900643297433,
			"lng": 32.8667,
			"lat": 40.0
		},
		{
			"city": "Naples",
			"x": 538.8085149166423,
			"y": 602.6825694297418,
			"lng": 14.2486,
			"lat": 40.8358
		},
		{
			"city": "Donetsk",
			"x": 844.549539338988,
			"y": 484.4789906559856,
			"lng": 37.8053,
			"lat": 48.0028
		},
		{
			"city": "Osmangazi",
			"x": 731.0448047674759,
			"y": 612.5421173646249,
			"lng": 29.06,
			"lat": 40.1983
		},
		{
			"city": "Marseille",
			"x": 423.57368748171984,
			"y": 563.7051229494152,
			"lng": 5.37,
			"lat": 43.2964
		},
		{
			"city": "Portsmouth",
			"x": 339.76606829482307,
			"y": 433.81510105406153,
			"lng": -1.0872,
			"lat": 50.8058
		},
		{
			"city": "Southampton",
			"x": 335.651743930974,
			"y": 432.014159498701,
			"lng": -1.4042,
			"lat": 50.9025
		},
		{
			"city": "Turin",
			"x": 453.50442380813104,
			"y": 534.4700116382276,
			"lng": 7.6761,
			"lat": 45.0792
		},
		{
			"city": "Saratov",
			"x": 951.3623318221701,
			"y": 420.2356798227411,
			"lng": 46.035,
			"lat": 51.53
		},
		{
			"city": "Eskişehir",
			"x": 750.0018463000877,
			"y": 619.0116947630963,
			"lng": 30.5206,
			"lat": 39.7767
		},
		{
			"city": "Kraków",
			"x": 612.6405198888564,
			"y": 447.5556603594961,
			"lng": 19.9372,
			"lat": 50.0614
		},
		{
			"city": "Thessaloníki",
			"x": 651.5565772155601,
			"y": 605.7161516135449,
			"lng": 22.9356,
			"lat": 40.6403
		},
		{
			"city": "Seyhan",
			"x": 812.4591071950862,
			"y": 660.9200593162634,
			"lng": 35.3328,
			"lat": 36.9831
		},
		{
			"city": "Frankfurt",
			"x": 466.5625365603978,
			"y": 446.6541263504481,
			"lng": 8.6822,
			"lat": 50.1106
		},
		{
			"city": "Bilbao",
			"x": 315.9315406551624,
			"y": 564.3430059236139,
			"lng": -2.9236,
			"lat": 43.2569
		},
		{
			"city": "Erzurum",
			"x": 889.60723164668,
			"y": 616.991936181867,
			"lng": 41.2769,
			"lat": 39.9086
		},
		{
			"city": "Zagreb",
			"x": 561.2439126937701,
			"y": 522.1708470205884,
			"lng": 15.9772,
			"lat": 45.8131
		},
		{
			"city": "Pendik",
			"x": 733.31611947938,
			"y": 602.0778905158276,
			"lng": 29.235,
			"lat": 40.8747
		},
		{
			"city": "Gdańsk",
			"x": 595.87302573852,
			"y": 365.24498544436324,
			"lng": 18.6453,
			"lat": 54.3475
		},
		{
			"city": "Bağcılar",
			"x": 728.4022923369405,
			"y": 599.5917104705176,
			"lng": 28.8564,
			"lat": 41.0344
		},
		{
			"city": "Umraniye",
			"x": 731.6690918397192,
			"y": 599.643145192737,
			"lng": 29.1081,
			"lat": 41.0311
		},
		{
			"city": "Lviv",
			"x": 665.7892841474115,
			"y": 451.555586747554,
			"lng": 24.0322,
			"lat": 49.8425
		},
		{
			"city": "Zaporizhzhia",
			"x": 809.6647411523836,
			"y": 487.16001354126115,
			"lng": 35.1175,
			"lat": 47.85
		},
		{
			"city": "Oslo",
			"x": 493.2563249488154,
			"y": 244.39604324569734,
			"lng": 10.7389,
			"lat": 59.9133
		},
		{
			"city": "Bristol",
			"x": 320.16397338403044,
			"y": 421.6783671005037,
			"lng": -2.5975,
			"lat": 51.4536
		},
		{
			"city": "Yenimahalle",
			"x": 779.7404942965779,
			"y": 616.0212550731101,
			"lng": 32.8119,
			"lat": 39.9719
		},
		{
			"city": "Selçuklu",
			"x": 775.5911267914594,
			"y": 647.6192752639621,
			"lng": 32.4922,
			"lat": 37.8814
		},
		{
			"city": "Mamak",
			"x": 781.1837525592277,
			"y": 616.4768049499728,
			"lng": 32.9231,
			"lat": 39.9422
		},
		{
			"city": "Zaragoza",
			"x": 342.4124744077216,
			"y": 589.9512249798712,
			"lng": -0.8833,
			"lat": 41.65
		},
		{
			"city": "Gothenburg",
			"x": 509.2022521205031,
			"y": 294.49441446709625,
			"lng": 11.9675,
			"lat": 57.7075
		},
		{
			"city": "Wrocław",
			"x": 574.9405893536122,
			"y": 428.1370133488032,
			"lng": 17.0325,
			"lat": 51.11
		},
		{
			"city": "Murcia",
			"x": 339.2066759286341,
			"y": 646.0585401262845,
			"lng": -1.1303,
			"lat": 37.9861
		},
		{
			"city": "Łódź",
			"x": 606.3781807546065,
			"y": 415.55675980205854,
			"lng": 19.4547,
			"lat": 51.7769
		},
		{
			"city": "Tolyatti",
			"x": 995.324601491664,
			"y": 381.99105830695396,
			"lng": 49.4222,
			"lat": 53.5089
		},
		{
			"city": "Rotterdam",
			"x": 412.0224298040363,
			"y": 412.8331917492201,
			"lng": 4.48,
			"lat": 51.92
		},
		{
			"city": "Makhachkala",
			"x": 970.4413754021641,
			"y": 568.7629018729102,
			"lng": 47.505,
			"lat": 42.9825
		},
		{
			"city": "Yıldırım",
			"x": 731.3316393682362,
			"y": 613.9004194367387,
			"lng": 29.0821,
			"lat": 40.11
		},
		{
			"city": "Denizli",
			"x": 731.5172382275518,
			"y": 649.0796137941663,
			"lng": 29.0964,
			"lat": 37.7833
		},
		{
			"city": "Chisinau",
			"x": 728.1284366773909,
			"y": 501.5387521574262,
			"lng": 28.8353,
			"lat": 47.0228
		},
		{
			"city": "Tallinn",
			"x": 675.0445671248904,
			"y": 255.48287117150085,
			"lng": 24.7453,
			"lat": 59.4372
		},
		{
			"city": "Las Palmas",
			"x": 153.54292190699044,
			"y": 784.6938387371599,
			"lng": -15.4353,
			"lat": 28.1258
		},
		{
			"city": "Düsseldorf",
			"x": 441.83116408306523,
			"y": 425.9694683708242,
			"lng": 6.7767,
			"lat": 51.2256
		},
		{
			"city": "Palermo",
			"x": 527.2923003802281,
			"y": 644.1235392048908,
			"lng": 13.3613,
			"lat": 38.1157
		},
		{
			"city": "Glasgow",
			"x": 298.71627303305064,
			"y": 334.133407690994,
			"lng": -4.25,
			"lat": 55.8611
		},
		{
			"city": "Bazal’tove",
			"x": 693.4058752559228,
			"y": 436.2173704825825,
			"lng": 26.16,
			"lat": 50.6765
		},
		{
			"city": "Leipzig",
			"x": 514.4911706639368,
			"y": 423.8190575176176,
			"lng": 12.375,
			"lat": 51.34
		},
		{
			"city": "Etimesgut",
			"x": 777.8909951740275,
			"y": 616.4215973182278,
			"lng": 32.6694,
			"lat": 39.9458
		},
		{
			"city": "Ulyanovsk",
			"x": 981.6253290435798,
			"y": 365.8660323772782,
			"lng": 48.3667,
			"lat": 54.3167
		},
		{
			"city": "Yukarıkaraman",
			"x": 752.113520035098,
			"y": 661.8969366127287,
			"lng": 30.6833,
			"lat": 36.9167
		},
		{
			"city": "Riga",
			"x": 666.7588110558643,
			"y": 311.04740742927095,
			"lng": 24.1069,
			"lat": 56.9475
		},
		{
			"city": "Kryvyi Rih",
			"x": 787.2436202105878,
			"y": 486.1082000023579,
			"lng": 33.39,
			"lat": 47.91
		},
		{
			"city": "Şanlıurfa",
			"x": 857.3519669494003,
			"y": 658.3384138665807,
			"lng": 38.7917,
			"lat": 37.1583
		},
		{
			"city": "Dortmund",
			"x": 450.76846300087743,
			"y": 420.53990276888817,
			"lng": 7.4653,
			"lat": 51.5139
		},
		{
			"city": "Melikgazi",
			"x": 814.6291861655454,
			"y": 635.1049936238962,
			"lng": 35.5,
			"lat": 38.7167
		},
		{
			"city": "Dublin",
			"x": 272.6247075168178,
			"y": 385.1325739653257,
			"lng": -6.2603,
			"lat": 53.3497
		},
		{
			"city": "Essen",
			"x": 444.89938578531735,
			"y": 421.7311945645404,
			"lng": 7.0131,
			"lat": 51.4508
		},
		{
			"city": "Vilnius",
			"x": 681.984406990348,
			"y": 358.3642400988134,
			"lng": 25.28,
			"lat": 54.6872
		},
		{
			"city": "Bremen",
			"x": 468.18490421175784,
			"y": 390.5101382865871,
			"lng": 8.8072,
			"lat": 53.0758
		},
		{
			"city": "Sincan",
			"x": 776.6878473237788,
			"y": 616.213008931343,
			"lng": 32.5767,
			"lat": 39.9594
		},
		{
			"city": "Kahramanmaraş",
			"x": 833.2319026031003,
			"y": 652.0508684996489,
			"lng": 36.9333,
			"lat": 37.5833
		},
		{
			"city": "Yaroslavl",
			"x": 871.087580432875,
			"y": 296.49018546571847,
			"lng": 39.85,
			"lat": 57.6167
		},
		{
			"city": "Dresden",
			"x": 532.2074254167885,
			"y": 429.25989977173447,
			"lng": 13.74,
			"lat": 51.05
		},
		{
			"city": "Antwerp",
			"x": 410.9880081895291,
			"y": 426.11589249387725,
			"lng": 4.4003,
			"lat": 51.2178
		},
		{
			"city": "Genoa",
			"x": 469.83063395729744,
			"y": 545.5939927566105,
			"lng": 8.934,
			"lat": 44.4072
		},
		{
			"city": "Braunschweig",
			"x": 490.37240421175784,
			"y": 406.19838465002715,
			"lng": 10.5167,
			"lat": 52.2667
		},
		{
			"city": "Palma",
			"x": 388.2709673881252,
			"y": 622.2194139783134,
			"lng": 2.65,
			"lat": 39.5667
		},
		{
			"city": "Lisbon",
			"x": 235.32712415911092,
			"y": 635.1728003082562,
			"lng": -9.134,
			"lat": 38.7122
		},
		{
			"city": "The Hague",
			"x": 409.81600979818666,
			"y": 409.77767258412007,
			"lng": 4.31,
			"lat": 52.08
		},
		{
			"city": "Hannover",
			"x": 479.98925124305356,
			"y": 404.27505020700676,
			"lng": 9.7167,
			"lat": 52.3667
		},
		{
			"city": "Sevastopol",
			"x": 788.9633299210295,
			"y": 542.3330985252232,
			"lng": 33.5225,
			"lat": 44.605
		},
		{
			"city": "Manchester",
			"x": 324.7364543726236,
			"y": 382.58197743949245,
			"lng": -2.2452,
			"lat": 53.479
		},
		{
			"city": "Poznań",
			"x": 573.656972067856,
			"y": 403.47366079883795,
			"lng": 16.9336,
			"lat": 52.4083
		},
		{
			"city": "Santa Cruz",
			"x": 142.9689785024862,
			"y": 780.1418526719332,
			"lng": -16.25,
			"lat": 28.4667
		},
		{
			"city": "Nilüfer",
			"x": 729.617121234279,
			"y": 611.2329066107258,
			"lng": 28.95,
			"lat": 40.2833
		},
		{
			"city": "Leeds",
			"x": 333.84247952617727,
			"y": 376.2658537568069,
			"lng": -1.5436,
			"lat": 53.7975
		},
		{
			"city": "Balashikha",
			"x": 846.644340450424,
			"y": 335.0630649746537,
			"lng": 37.9667,
			"lat": 55.8167
		},
		{
			"city": "Nuremberg",
			"x": 497.6509944428195,
			"y": 458.61204267048447,
			"lng": 11.0775,
			"lat": 49.4539
		},
		{
			"city": "Van",
			"x": 916.9032429072829,
			"y": 638.4525635876753,
			"lng": 43.38,
			"lat": 38.4942
		},
		{
			"city": "Buca",
			"x": 706.471775372916,
			"y": 640.6165699150336,
			"lng": 27.1667,
			"lat": 38.35
		},
		{
			"city": "Lyon",
			"x": 416.6948486399532,
			"y": 523.066130399906,
			"lng": 4.84,
			"lat": 45.76
		},
		{
			"city": "Ryazan",
			"x": 869.6923442527054,
			"y": 359.52686282975424,
			"lng": 39.7425,
			"lat": 54.63
		},
		{
			"city": "Sheffield",
			"x": 334.7938359169348,
			"y": 384.5197972099679,
			"lng": -1.4703,
			"lat": 53.3808
		},
		{
			"city": "Liverpool",
			"x": 315.0476747587014,
			"y": 383.99927528523267,
			"lng": -2.9917,
			"lat": 53.4072
		},
		{
			"city": "Toulouse",
			"x": 372.6183642878035,
			"y": 558.7153446215053,
			"lng": 1.444,
			"lat": 43.6045
		},
		{
			"city": "Duisburg",
			"x": 441.64686311787074,
			"y": 422.03488962746246,
			"lng": 6.7625,
			"lat": 51.4347
		},
		{
			"city": "Homyel’",
			"x": 756.0188834454518,
			"y": 402.7602512805372,
			"lng": 30.9842,
			"lat": 52.4453
		},
		{
			"city": "Valletta",
			"x": 542.2336575021936,
			"y": 676.7747829508213,
			"lng": 14.5125,
			"lat": 35.8983
		},
		{
			"city": "Bratislava",
			"x": 575.9827983328458,
			"y": 481.982097580855,
			"lng": 17.1128,
			"lat": 48.1447
		},
		{
			"city": "Skopje",
			"x": 632.037547528517,
			"y": 584.4907259668113,
			"lng": 21.4317,
			"lat": 41.9961
		},
		{
			"city": "Tirana",
			"x": 611.1012174612459,
			"y": 595.0177340783014,
			"lng": 19.8186,
			"lat": 41.3272
		},
		{
			"city": "Nicosia",
			"x": 786.9191466803159,
			"y": 687.2613834403103,
			"lng": 33.365,
			"lat": 35.1725
		},
		{
			"city": "Ljubljana",
			"x": 542.150592278444,
			"y": 518.1424802817879,
			"lng": 14.5061,
			"lat": 46.0514
		},
		{
			"city": "Sarajevo",
			"x": 592.8593155893536,
			"y": 554.6167243704924,
			"lng": 18.4131,
			"lat": 43.8564
		},
		{
			"city": "Pristina",
			"x": 628.6721080725358,
			"y": 573.8269021506485,
			"lng": 21.1724,
			"lat": 42.6666
		},
		{
			"city": "Podgorica",
			"x": 603.8875219362386,
			"y": 577.4212497858252,
			"lng": 19.2628,
			"lat": 42.4414
		},
		{
			"city": "Reykjavík",
			"x": 69.08635565954967,
			"y": 138.100109583723,
			"lng": -21.9425,
			"lat": 64.1458
		},
		{
			"city": "Bern",
			"x": 450.5361399532027,
			"y": 502.827910102003,
			"lng": 7.4474,
			"lat": 46.948
		},
		{
			"city": "Luxembourg",
			"x": 433.46234279028954,
			"y": 455.7533941091125,
			"lng": 6.1319,
			"lat": 49.6117
		},
		{
			"city": "Monaco",
			"x": 450.13768645802867,
			"y": 556.6218164275127,
			"lng": 7.4167,
			"lat": 43.7333
		},
		{
			"city": "Andorra la Vella",
			"x": 373.3451849956128,
			"y": 576.4872005202035,
			"lng": 1.5,
			"lat": 42.5
		},
		{
			"city": "Vaduz",
			"x": 477.4648471775373,
			"y": 499.50483312690994,
			"lng": 9.5222,
			"lat": 47.1406
		},
		{
			"city": "San Marino",
			"x": 515.4295481134834,
			"y": 553.3408273018333,
			"lng": 12.4473,
			"lat": 43.9346
		},
		{
			"city": "Vatican City",
			"x": 515.5035280783854,
			"y": 585.9466948444687,
			"lng": 12.453,
			"lat": 41.904
		}
	]
}
