{
	"locations": [
		{
			"index": 0,
			"city": "Andorra la Vella",
			"x": 373.3451849956128,
			"y": 576.4872005202035,
			"lng": 1.5,
			"lat": 42.5,
			"country": "Andorra",
			"population": 22615,
			"is_capital": true,
			"is_eu": false
		},
		{
			"index": 1,
			"city": "Tirana",
			"x": 611.1012174612459,
			"y": 595.0177340783014,
			"lng": 19.8186,
			"lat": 41.3272,
			"country": "Albania",
			"population": 418495,
			"is_capital": true,
			"is_eu": false
		},
		{
			"index": 2,
			"city": "Durrës",
			"x": 606.2626681778297,
			"y": 595.2353363608293,
			"lng": 19.4458,
			"lat": 41.3133,
			"country": "Albania",
			"population": 153614,
			"is_capital": false,
			"is_eu": false
		},
		{
			"index": 3,
			"city": "Yerevan",
			"x": 931.6265538169055,
			"y": 612.802223569914,
			"lng": 44.5144,
			"lat": 40.1814,
			"country": "Armenia",
			"population": 1106300,
			"is_capital": true,
			"is_eu": false
		},
		{
			"index": 4,
			"city": "Gyumri",
			"x": 922.9708979233692,
			"y": 603.4033678548732,
			"lng": 43.8475,
			"lat": 40.7894,
			"country": "Armenia",
			"population": 121976,
			"is_capital": false,
			"is_eu": false
		},
		{
			"index": 5,
			"city": "Vienna",
			"x": 566.3744881544311,
			"y": 480.8607425252817,
			"lng": 16.3725,
			"lat": 48.2083,
			"country": "Austria",
			"population": 2223236,
			"is_capital": true,
			"is_eu": true
		},
		{
			"index": 6,
			"city": "Graz",
			"x": 554.2534549575898,
			"y": 500.7105333752269,
			"lng": 15.4386,
			"lat": 47.0708,
			"country": "Austria",
			"population": 292630,
			"is_capital": false,
			"is_eu": true
		},
		{
			"index": 7,
			"city": "Sarajevo",
			"x": 592.8593155893536,
			"y": 554.6167243704924,
			"lng": 18.4131,
			"lat": 43.8564,
			"country": "Bosnia and Herzegovina",
			"population": 244000,
			"is_capital": true,
			"is_eu": false
		},
		{
			"index": 8,
			"city": "Banja Luka",
			"x": 577.0172199473529,
			"y": 539.5630319492232,
			"lng": 17.1925,
			"lat": 44.7725,
			"country": "Bosnia and Herzegovina",
			"population": 185042,
			"is_capital": false,
			"is_eu": false
		},
		{
			"index": 9,
			"city": "Brussels",
			"x": 410.36761479964906,
			"y": 433.0538347392512,
			"lng": 4.3525,
			"lat": 50.8467,
			"country": "Belgium",
			"population": 1249597,
			"is_capital": true,
			"is_eu": true
		},
		{
			"index": 10,
			"city": "Antwerp",
			"x": 410.9880081895291,
			"y": 426.11589249387725,
			"lng": 4.4003,
			"lat": 51.2178,
			"country": "Belgium",
			"population": 565039,
			"is_capital": false,
			"is_eu": true
		},
		{
			"index": 11,
			"city": "Sofia",
			"x": 656.567746417081,
			"y": 573.326303389429,
			"lng": 23.3217,
			"lat": 42.6979,
			"country": "Bulgaria",
			"population": 1404116,
			"is_capital": true,
			"is_eu": true
		},
		{
			"index": 12,
			"city": "Varna",
			"x": 716.1332992102954,
			"y": 565.0772698948102,
			"lng": 27.9111,
			"lat": 43.2114,
			"country": "Bulgaria",
			"population": 350745,
			"is_capital": false,
			"is_eu": true
		},
		{
			"index": 13,
			"city": "Minsk",
			"x": 711.5582224334601,
			"y": 374.21102239960794,
			"lng": 27.5586,
			"lat": 53.9006,
			"country": "Belarus",
			"population": 1992862,
			"is_capital": true,
			"is_eu": false
		},
		{
			"index": 14,
			"city": "Homyel’",
			"x": 756.0188834454518,
			"y": 402.7602512805372,
			"lng": 30.9842,
			"lat": 52.4453,
			"country": "Belarus",
			"population": 501102,
			"is_capital": false,
			"is_eu": false
		},
		{
			"index": 15,
			"city": "Zürich",
			"x": 464.7312079555426,
			"y": 495.45468306280736,
			"lng": 8.5411,
			"lat": 47.3744,
			"country": "Switzerland",
			"population": 448664,
			"is_capital": false,
			"is_eu": false
		},
		{
			"index": 16,
			"city": "Geneva",
			"x": 433.6570269084528,
			"y": 515.5927747933051,
			"lng": 6.1469,
			"lat": 46.2017,
			"country": "Switzerland",
			"population": 203840,
			"is_capital": false,
			"is_eu": false
		},
		{
			"index": 17,
			"city": "Nicosia",
			"x": 786.9191466803159,
			"y": 687.2613834403103,
			"lng": 33.365,
			"lat": 35.1725,
			"country": "Cyprus",
			"population": 330000,
			"is_capital": true,
			"is_eu": true
		},
		{
			"index": 18,
			"city": "Limassol",
			"x": 782.7555023398653,
			"y": 694.3996795416111,
			"lng": 33.0442,
			"lat": 34.6747,
			"country": "Cyprus",
			"population": 235056,
			"is_capital": false,
			"is_eu": true
		},
		{
			"index": 19,
			"city": "Prague",
			"x": 541.0512759578825,
			"y": 447.0775228117159,
			"lng": 14.4214,
			"lat": 50.0875,
			"country": "Czechia",
			"population": 1384732,
			"is_capital": true,
			"is_eu": true
		},
		{
			"index": 20,
			"city": "Brno",
			"x": 569.4349224919567,
			"y": 463.3272932698036,
			"lng": 16.6083,
			"lat": 49.1925,
			"country": "Czechia",
			"population": 400566,
			"is_capital": false,
			"is_eu": true
		},
		{
			"index": 21,
			"city": "Berlin",
			"x": 527.8594801111435,
			"y": 401.31810710808566,
			"lng": 13.405,
			"lat": 52.52,
			"country": "Germany",
			"population": 4679500,
			"is_capital": true,
			"is_eu": true
		},
		{
			"index": 22,
			"city": "Stuttgart",
			"x": 473.023453495174,
			"y": 470.76234995323125,
			"lng": 9.18,
			"lat": 48.7775,
			"country": "Germany",
			"population": 2787724,
			"is_capital": false,
			"is_eu": true
		},
		{
			"index": 23,
			"city": "Munich",
			"x": 504.1080176952325,
			"y": 482.10895584816683,
			"lng": 11.575,
			"lat": 48.1375,
			"country": "Germany",
			"population": 2606021,
			"is_capital": false,
			"is_eu": true
		},
		{
			"index": 24,
			"city": "Hamburg",
			"x": 483.6661852880959,
			"y": 381.17811078984244,
			"lng": 10.0,
			"lat": 53.55,
			"country": "Germany",
			"population": 2496600,
			"is_capital": false,
			"is_eu": true
		},
		{
			"index": 25,
			"city": "Cologne",
			"x": 444.11675563030127,
			"y": 431.38192028309766,
			"lng": 6.9528,
			"lat": 50.9364,
			"country": "Germany",
			"population": 1087353,
			"is_capital": false,
			"is_eu": true
		},
		{
			"index": 26,
			"city": "Frankfurt",
			"x": 466.5625365603978,
			"y": 446.6541263504481,
			"lng": 8.6822,
			"lat": 50.1106,
			"country": "Germany",
			"population": 775790,
			"is_capital": false,
			"is_eu": true
		},
		{
			"index": 27,
			"city": "Düsseldorf",
			"x": 441.83116408306523,
			"y": 425.9694683708242,
			"lng": 6.7767,
			"lat": 51.2256,
			"country": "Germany",
			"population": 631217,
			"is_capital": false,
			"is_eu": true
		},
		{
			"index": 28,
			"city": "Leipzig",
			"x": 514.4911706639368,
			"y": 423.8190575176176,
			"lng": 12.375,
			"lat": 51.34,
			"country": "Germany",
			"population": 619879,
			"is_capital": false,
			"is_eu": true
		},
		{
			"index": 29,
			"city": "Dortmund",
			"x": 450.76846300087743,
			"y": 420.53990276888817,
			"lng": 7.4653,
			"lat": 51.5139,
			"country": "Germany",
			"population": 595471,
			"is_capital": false,
			"is_eu": true
		},
		{
			"index": 30,
			"city": "Bremen",
			"x": 468.18490421175784,
			"y": 390.5101382865871,
			"lng": 8.8072,
			"lat": 53.0758,
			"country": "Germany",
			"population": 577026,
			"is_capital": false,
			"is_eu": true
		},
		{
			"index": 31,
			"city": "Dresden",
			"x": 532.2074254167885,
			"y": 429.25989977173447,
			"lng": 13.74,
			"lat": 51.05,
			"country": "Germany",
			"population": 566222,
			"is_capital": false,
			"is_eu": true
		},
		{
			"index": 32,
			"city": "Copenhagen",
			"x": 516.911743199766,
			"y": 337.9082504251661,
			"lng": 12.5615,
			"lat": 55.6805,
			"country": "Denmark",
			"population": 1366301,
			"is_capital": true,
			"is_eu": true
		},
		{
			"index": 33,
			"city": "Aarhus",
			"x": 486.4008482012284,
			"y": 327.90626794587024,
			"lng": 10.2107,
			"lat": 56.1572,
			"country": "Denmark",
			"population": 290598,
			"is_capital": false,
			"is_eu": true
		},
		{
			"index": 34,
			"city": "Tallinn",
			"x": 675.0445671248904,
			"y": 255.48287117150085,
			"lng": 24.7453,
			"lat": 59.4372,
			"country": "Estonia",
			"population": 638076,
			"is_capital": true,
			"is_eu": true
		},
		{
			"index": 35,
			"city": "Tartu",
			"x": 700.706529687043,
			"y": 279.55493571574834,
			"lng": 26.7225,
			"lat": 58.38,
			"country": "Estonia",
			"population": 97435,
			"is_capital": false,
			"is_eu": true
		},
		{
			"index": 36,
			"city": "Madrid",
			"x": 305.81186019303897,
			"y": 609.1718034512892,
			"lng": -3.7033,
			"lat": 40.4169,
			"country": "Spain",
			"population": 6211000,
			"is_capital": true,
			"is_eu": true
		},
		{
			"index": 37,
			"city": "Barcelona",
			"x": 382.2136955250073,
			"y": 594.1390253775887,
			"lng": 2.1833,
			"lat": 41.3833,
			"country": "Spain",
			"population": 4800000,
			"is_capital": false,
			"is_eu": true
		},
		{
			"index": 38,
			"city": "Valencia",
			"x": 348.9914997075169,
			"y": 623.6932244562856,
			"lng": -0.3764,
			"lat": 39.47,
			"country": "Spain",
			"population": 1595000,
			"is_capital": false,
			"is_eu": true
		},
		{
			"index": 39,
			"city": "Sevilla",
			"x": 276.1329153261188,
			"y": 654.9150096980234,
			"lng": -5.99,
			"lat": 37.39,
			"country": "Spain",
			"population": 1100000,
			"is_capital": false,
			"is_eu": true
		},
		{
			"index": 40,
			"city": "Málaga",
			"x": 296.50985302720096,
			"y": 664.794610365439,
			"lng": -4.42,
			"lat": 36.7194,
			"country": "Spain",
			"population": 967250,
			"is_capital": false,
			"is_eu": true
		},
		{
			"index": 41,
			"city": "Bilbao",
			"x": 315.9315406551624,
			"y": 564.3430059236139,
			"lng": -2.9236,
			"lat": 43.2569,
			"country": "Spain",
			"population": 775000,
			"is_capital": false,
			"is_eu": true
		},
		{
			"index": 42,
			"city": "Zaragoza",
			"x": 342.4124744077216,
			"y": 589.9512249798712,
			"lng": -0.8833,
			"lat": 41.65,
			"country": "Spain",
			"population": 686986,
			"is_capital": false,
			"is_eu": true
		},
		{
			"index": 43,
			"city": "Murcia",
			"x": 339.2066759286341,
			"y": 646.0585401262845,
			"lng": -1.1303,
			"lat": 37.9861,
			"country": "Spain",
			"population": 672773,
			"is_capital": false,
			"is_eu": true
		},
		{
			"index": 44,
			"city": "Helsinki",
			"x": 677.5391196256214,
			"y": 238.33330622613767,
			"lng": 24.9375,
			"lat": 60.1708,
			"country": "Finland",
			"population": 1360075,
			"is_capital": true,
			"is_eu": true
		},
		{
			"index": 45,
			"city": "Tampere",
			"x": 662.2564163498098,
			"y": 206.30601299102864,
			"lng": 23.76,
			"lat": 61.4981,
			"country": "Finland",
			"population": 334112,
			"is_capital": false,
			"is_eu": true
		},
		{
			"index": 46,
			"city": "Tórshavn",
			"x": 265.8367212635274,
			"y": 193.83887817704306,
			"lng": -6.7833,
			"lat": 62.0,
			"country": "Faroe Islands",
			"population": 13326,
			"is_capital": true,
			"is_eu": false
		},
		{
			"index": 47,
			"city": "Klaksvík",
			"x": 269.0074766013455,
			"y": 187.8676954281483,
			"lng": -6.539,
			"lat": 62.2375,
			"country": "Faroe Islands",
			"population": 4664,
			"is_capital": false,
			"is_eu": false
		},
		{
			"index": 48,
			"city": "Paris",
			"x": 384.40583869552506,
			"y": 469.3481881574098,
			"lng": 2.3522,
			"lat": 48.8567,
			"country": "France",
			"population": 11060000,
			"is_capital": true,
			"is_eu": true
		},
		{
			"index": 49,
			"city": "Bordeaux",
			"x": 346.34898727698163,
			"y": 538.4444659720948,
			"lng": -0.58,
			"lat": 44.84,
			"country": "France",
			"population": 994920,
			"is_capital": false,
			"is_eu": true
		},
		{
			"index": 50,
			"city": "Marseille",
			"x": 423.57368748171984,
			"y": 563.7051229494152,
			"lng": 5.37,
			"lat": 43.2964,
			"country": "France",
			"population": 877215,
			"is_capital": false,
			"is_eu": true
		},
		{
			"index": 51,
			"city": "Lyon",
			"x": 416.6948486399532,
			"y": 523.066130399906,
			"lng": 4.84,
			"lat": 45.76,
			"country": "France",
			"population": 520774,
			"is_capital": false,
			"is_eu": true
		},
		{
			"index": 52,
			"city": "Toulouse",
			"x": 372.6183642878035,
			"y": 558.7153446215053,
			"lng": 1.444,
			"lat": 43.6045,
			"country": "France",
			"population": 511684,
			"is_capital": false,
			"is_eu": true
		},
		{
			"index": 53,
			"city": "Nantes",
			"x": 333.7230732670372,
			"y": 498.16426989751085,
			"lng": -1.5528,
			"lat": 47.2181,
			"country": "France",
			"population": 325070,
			"is_capital": false,
			"is_eu": true
		},
		{
			"index": 54,
			"city": "Montpellier",
			"x": 404.1987240421176,
			"y": 558.595185795276,
			"lng": 3.8772,
			"lat": 43.6119,
			"country": "France",
			"population": 307101,
			"is_capital": false,
			"is_eu": true
		},
		{
			"index": 55,
			"city": "London",
			"x": 352.22195817490496,
			"y": 420.66647318077605,
			"lng": -0.1275,
			"lat": 51.5072,
			"country": "United Kingdom",
			"population": 11262000,
			"is_capital": true,
			"is_eu": false
		},
		{
			"index": 56,
			"city": "Birmingham",
			"x": 329.1843375255923,
			"y": 402.09064414042473,
			"lng": -1.9025,
			"lat": 52.48,
			"country": "United Kingdom",
			"population": 2590363,
			"is_capital": false,
			"is_eu": false
		},
		{
			"index": 57,
			"city": "Portsmouth",
			"x": 339.76606829482307,
			"y": 433.81510105406153,
			"lng": -1.0872,
			"lat": 50.8058,
			"country": "United Kingdom",
			"population": 855679,
			"is_capital": false,
			"is_eu": false
		},
		{
			"index": 58,
			"city": "Southampton",
			"x": 335.651743930974,
			"y": 432.014159498701,
			"lng": -1.4042,
			"lat": 50.9025,
			"country": "United Kingdom",
			"population": 855569,
			"is_capital": false,
			"is_eu": false
		},
		{
			"index": 59,
			"city": "Bristol",
			"x": 320.16397338403044,
			"y": 421.6783671005037,
			"lng": -2.5975,
			"lat": 51.4536,
			"country": "United Kingdom",
			"population": 707412,
			"is_capital": false,
			"is_eu": false
		},
		{
			"index": 60,
			"city": "Glasgow",
			"x": 298.71627303305064,
			"y": 334.133407690994,
			"lng": -4.25,
			"lat": 55.8611,
			"country": "United Kingdom",
			"population": 626410,
			"is_capital": false,
			"is_eu": false
		},
		{
			"index": 61,
			"city": "Manchester",
			"x": 324.7364543726236,
			"y": 382.58197743949245,
			"lng": -2.2452,
			"lat": 53.479,
			"country": "United Kingdom",
			"population": 547627,
			"is_capital": false,
			"is_eu": false
		},
		{
			"index": 62,
			"city": "Leeds",
			"x": 333.84247952617727,
			"y": 376.2658537568069,
			"lng": -1.5436,
			"lat": 53.7975,
			"country": "United Kingdom",
			"population": 536280,
			"is_capital": false,
			"is_eu": false
		},
		{
			"index": 63,
			"city": "Sheffield",
			"x": 334.7938359169348,
			"y": 384.5197972099679,
			"lng": -1.4703,
			"lat": 53.3808,
			"country": "United Kingdom",
			"population": 518090,
			"is_capital": false,
			"is_eu": false
		},
		{
			"index": 64,
			"city": "Liverpool",
			"x": 315.0476747587014,
			"y": 383.99927528523267,
			"lng": -2.9917,
			"lat": 53.4072,
			"country": "United Kingdom",
			"population": 513441,
			"is_capital": false,
			"is_eu": false
		},
		{
			"index": 65,
			"city": "Edinburgh",
			"x": 312.5609096226967,
			"y": 332.26880099660616,
			"lng": -3.1833,
			"lat": 55.95,
			"country": "United Kingdom",
			"population": 488050,
			"is_capital": false,
			"is_eu": false
		},
		{
			"index": 66,
			"city": "Tbilisi",
			"x": 935.2359973676512,
			"y": 588.80981555683,
			"lng": 44.7925,
			"lat": 41.7225,
			"country": "Georgia",
			"population": 1118035,
			"is_capital": true,
			"is_eu": false
		},
		{
			"index": 67,
			"city": "Batumi",
			"x": 894.3419494004095,
			"y": 590.0173086217036,
			"lng": 41.6417,
			"lat": 41.6458,
			"country": "Georgia",
			"population": 169095,
			"is_capital": false,
			"is_eu": false
		},
		{
			"index": 68,
			"city": "Athens",
			"x": 661.8423881251828,
			"y": 646.0868827429304,
			"lng": 23.7281,
			"lat": 37.9842,
			"country": "Greece",
			"population": 3059764,
			"is_capital": true,
			"is_eu": true
		},
		{
			"index": 69,
			"city": "Thessaloníki",
			"x": 651.5565772155601,
			"y": 605.7161516135449,
			"lng": 22.9356,
			"lat": 40.6403,
			"country": "Greece",
			"population": 802572,
			"is_capital": false,
			"is_eu": true
		},
		{
			"index": 70,
			"city": "Zagreb",
			"x": 561.2439126937701,
			"y": 522.1708470205884,
			"lng": 15.9772,
			"lat": 45.8131,
			"country": "Croatia",
			"population": 767131,
			"is_capital": true,
			"is_eu": true
		},
		{
			"index": 71,
			"city": "Split",
			"x": 567.2505666861655,
			"y": 560.2485077192038,
			"lng": 16.44,
			"lat": 43.51,
			"country": "Croatia",
			"population": 160577,
			"is_capital": false,
			"is_eu": true
		},
		{
			"index": 72,
			"city": "Budapest",
			"x": 601.0061969874232,
			"y": 493.3010647983689,
			"lng": 19.0408,
			"lat": 47.4983,
			"country": "Hungary",
			"population": 1686222,
			"is_capital": true,
			"is_eu": true
		},
		{
			"index": 73,
			"city": "Győr",
			"x": 582.7526140684411,
			"y": 490.0602133741195,
			"lng": 17.6344,
			"lat": 47.6842,
			"country": "Hungary",
			"population": 246159,
			"is_capital": false,
			"is_eu": true
		},
		{
			"index": 74,
			"city": "Dublin",
			"x": 272.6247075168178,
			"y": 385.1325739653257,
			"lng": -6.2603,
			"lat": 53.3497,
			"country": "Ireland",
			"population": 592713,
			"is_capital": true,
			"is_eu": true
		},
		{
			"index": 75,
			"city": "Reykjavík",
			"x": 69.08635565954967,
			"y": 138.100109583723,
			"lng": -21.9425,
			"lat": 64.1458,
			"country": "Iceland",
			"population": 139875,
			"is_capital": true,
			"is_eu": false
		},
		{
			"index": 76,
			"city": "Kópavogur",
			"x": 69.51595861362983,
			"y": 139.04315400379664,
			"lng": -21.9094,
			"lat": 64.1108,
			"country": "Iceland",
			"population": 39810,
			"is_capital": false,
			"is_eu": false
		},
		{
			"index": 77,
			"city": "Rome",
			"x": 515.8903005264697,
			"y": 586.1188691290105,
			"lng": 12.4828,
			"lat": 41.8931,
			"country": "Italy",
			"population": 2748109,
			"is_capital": true,
			"is_eu": true
		},
		{
			"index": 78,
			"city": "Milan",
			"x": 473.1532429072828,
			"y": 527.9926327863191,
			"lng": 9.19,
			"lat": 45.4669,
			"country": "Italy",
			"population": 1354196,
			"is_capital": false,
			"is_eu": true
		},
		{
			"index": 79,
			"city": "Naples",
			"x": 538.8085149166423,
			"y": 602.6825694297418,
			"lng": 14.2486,
			"lat": 40.8358,
			"country": "Italy",
			"population": 913462,
			"is_capital": false,
			"is_eu": true
		},
		{
			"index": 80,
			"city": "Turin",
			"x": 453.50442380813104,
			"y": 534.4700116382276,
			"lng": 7.6761,
			"lat": 45.0792,
			"country": "Italy",
			"population": 841600,
			"is_capital": false,
			"is_eu": true
		},
		{
			"index": 81,
			"city": "Palermo",
			"x": 527.2923003802281,
			"y": 644.1235392048908,
			"lng": 13.3613,
			"lat": 38.1157,
			"country": "Italy",
			"population": 630167,
			"is_capital": false,
			"is_eu": true
		},
		{
			"index": 82,
			"city": "Genoa",
			"x": 469.83063395729744,
			"y": 545.5939927566105,
			"lng": 8.934,
			"lat": 44.4072,
			"country": "Italy",
			"population": 558745,
			"is_capital": false,
			"is_eu": true
		},
		{
			"index": 83,
			"city": "Bologna",
			"x": 501.09430754606615,
			"y": 544.1660343805352,
			"lng": 11.3428,
			"lat": 44.4939,
			"country": "Italy",
			"population": 387971,
			"is_capital": false,
			"is_eu": true
		},
		{
			"index": 84,
			"city": "Florence",
			"x": 499.9443733547821,
			"y": 556.0016726587028,
			"lng": 11.2542,
			"lat": 43.7714,
			"country": "Italy",
			"population": 360930,
			"is_capital": false,
			"is_eu": true
		},
		{
			"index": 85,
			"city": "Vaduz",
			"x": 477.4648471775373,
			"y": 499.50483312690994,
			"lng": 9.5222,
			"lat": 47.1406,
			"country": "Liechtenstein",
			"population": 5668,
			"is_capital": true,
			"is_eu": false
		},
		{
			"index": 86,
			"city": "Vilnius",
			"x": 681.984406990348,
			"y": 358.3642400988134,
			"lng": 25.28,
			"lat": 54.6872,
			"country": "Lithuania",
			"population": 581475,
			"is_capital": true,
			"is_eu": true
		},
		{
			"index": 87,
			"city": "Kaunas",
			"x": 664.5056668616553,
			"y": 354.02451520396596,
			"lng": 23.9333,
			"lat": 54.9,
			"country": "Lithuania",
			"population": 305120,
			"is_capital": false,
			"is_eu": true
		},
		{
			"index": 88,
			"city": "Luxembourg",
			"x": 433.46234279028954,
			"y": 455.7533941091125,
			"lng": 6.1319,
			"lat": 49.6117,
			"country": "Luxembourg",
			"population": 132780,
			"is_capital": true,
			"is_eu": true
		},
		{
			"index": 89,
			"city": "Riga",
			"x": 666.7588110558643,
			"y": 311.04740742927095,
			"lng": 24.1069,
			"lat": 56.9475,
			"country": "Latvia",
			"population": 605273,
			"is_capital": true,
			"is_eu": true
		},
		{
			"index": 90,
			"city": "Daugavpils",
			"x": 698.0276762211173,
			"y": 333.91759214497085,
			"lng": 26.5161,
			"lat": 55.8714,
			"country": "Latvia",
			"population": 77799,
			"is_capital": false,
			"is_eu": true
		},
		{
			"index": 91,
			"city": "Monaco",
			"x": 450.13768645802867,
			"y": 556.6218164275127,
			"lng": 7.4167,
			"lat": 43.7333,
			"country": "Monaco",
			"population": 36371,
			"is_capital": true,
			"is_eu": false
		},
		{
			"index": 92,
			"city": "Chisinau",
			"x": 728.1284366773909,
			"y": 501.5387521574262,
			"lng": 28.8353,
			"lat": 47.0228,
			"country": "Moldova",
			"population": 639000,
			"is_capital": true,
			"is_eu": false
		},
		{
			"index": 93,
			"city": "Tiraspol",
			"x": 738.4856317636734,
			"y": 504.51419054391124,
			"lng": 29.6333,
			"lat": 46.85,
			"country": "Moldova",
			"population": 133807,
			"is_capital": false,
			"is_eu": false
		},
		{
			"index": 94,
			"city": "Podgorica",
			"x": 603.8875219362386,
			"y": 577.4212497858252,
			"lng": 19.2628,
			"lat": 42.4414,
			"country": "Montenegro",
			"population": 172139,
			"is_capital": true,
			"is_eu": false
		},
		{
			"index": 95,
			"city": "Nikšić",
			"x": 599.8277091254753,
			"y": 572.0472716425126,
			"lng": 18.95,
			"lat": 42.7778,
			"country": "Montenegro",
			"population": 32046,
			"is_capital": false,
			"is_eu": false
		},
		{
			"index": 96,
			"city": "Skopje",
			"x": 632.037547528517,
			"y": 584.4907259668113,
			"lng": 21.4317,
			"lat": 41.9961,
			"country": "North Macedonia",
			"population": 422540,
			"is_capital": true,
			"is_eu": false
		},
		{
			"index": 97,
			"city": "Kumanovo",
			"x": 635.7066942088329,
			"y": 582.3353171573823,
			"lng": 21.7144,
			"lat": 42.1322,
			"country": "North Macedonia",
			"population": 70842,
			"is_capital": false,
			"is_eu": false
		},
		{
			"index": 98,
			"city": "Valletta",
			"x": 542.2336575021936,
			"y": 676.7747829508213,
			"lng": 14.5125,
			"lat": 35.8983,
			"country": "Malta",
			"population": 480134,
			"is_capital": true,
			"is_eu": true
		},
		{
			"index": 99,
			"city": "Tilburg",
			"x": 419.95386077800526,
			"y": 419.72146859346265,
			"lng": 5.0911,
			"lat": 51.5572,
			"country": "Netherlands",
			"population": 1944588,
			"is_capital": false,
			"is_eu": true
		},
		{
			"index": 100,
			"city": "Amsterdam",
			"x": 417.39051988885643,
			"y": 404.15758601673156,
			"lng": 4.8936,
			"lat": 52.3728,
			"country": "Netherlands",
			"population": 1477213,
			"is_capital": true,
			"is_eu": true
		},
		{
			"index": 101,
			"city": "Rotterdam",
			"x": 412.0224298040363,
			"y": 412.8331917492201,
			"lng": 4.48,
			"lat": 51.92,
			"country": "Netherlands",
			"population": 664311,
			"is_capital": false,
			"is_eu": true
		},
		{
			"index": 102,
			"city": "The Hague",
			"x": 409.81600979818666,
			"y": 409.77767258412007,
			"lng": 4.31,
			"lat": 52.08,
			"country": "Netherlands",
			"population": 548320,
			"is_capital": true,
			"is_eu": true
		},
		{
			"index": 103,
			"city": "Oslo",
			"x": 493.2563249488154,
			"y": 244.39604324569734,
			"lng": 10.7389,
			"lat": 59.9133,
			"country": "Norway",
			"population": 709037,
			"is_capital": true,
			"is_eu": false
		},
		{
			"index": 104,
			"city": "Bergen",
			"x": 422.96757092717166,
			"y": 233.07527889110509,
			"lng": 5.3233,
			"lat": 60.3925,
			"country": "Norway",
			"population": 291189,
			"is_capital": false,
			"is_eu": false
		},
		{
			"index": 105,
			"city": "Warsaw",
			"x": 626.5786048552208,
			"y": 406.9031600964031,
			"lng": 21.0111,
			"lat": 52.23,
			"country": "Poland",
			"population": 2028000,
			"is_capital": true,
			"is_eu": true
		},
		{
			"index": 106,
			"city": "Kraków",
			"x": 612.6405198888564,
			"y": 447.5556603594961,
			"lng": 19.9372,
			"lat": 50.0614,
			"country": "Poland",
			"population": 804237,
			"is_capital": false,
			"is_eu": true
		},
		{
			"index": 107,
			"city": "Gdańsk",
			"x": 595.87302573852,
			"y": 365.24498544436324,
			"lng": 18.6453,
			"lat": 54.3475,
			"country": "Poland",
			"population": 749786,
			"is_capital": false,
			"is_eu": true
		},
		{
			"index": 108,
			"city": "Wrocław",
			"x": 574.9405893536122,
			"y": 428.1370133488032,
			"lng": 17.0325,
			"lat": 51.11,
			"country": "Poland",
			"population": 672929,
			"is_capital": false,
			"is_eu": true
		},
		{
			"index": 109,
			"city": "Lisbon",
			"x": 235.32712415911092,
			"y": 635.1728003082562,
			"lng": -9.134,
			"lat": 38.7122,
			"country": "Portugal",
			"population": 548703,
			"is_capital": true,
			"is_eu": true
		},
		{
			"index": 110,
			"city": "Aves",
			"x": 244.72257970166723,
			"y": 594.3427151452696,
			"lng": -8.4101,
			"lat": 41.3703,
			"country": "Portugal",
			"population": 425411,
			"is_capital": false,
			"is_eu": true
		},
		{
			"index": 111,
			"city": "Bucharest",
			"x": 692.6777566539923,
			"y": 545.177517981606,
			"lng": 26.1039,
			"lat": 44.4325,
			"country": "Romania",
			"population": 2412530,
			"is_capital": true,
			"is_eu": true
		},
		{
			"index": 112,
			"city": "Cluj-Napoca",
			"x": 659.9630374378473,
			"y": 505.9451113590562,
			"lng": 23.5833,
			"lat": 46.7667,
			"country": "Romania",
			"population": 286598,
			"is_capital": false,
			"is_eu": true
		},
		{
			"index": 113,
			"city": "Belgrade",
			"x": 619.3856756361508,
			"y": 538.8124943730783,
			"lng": 20.4569,
			"lat": 44.8178,
			"country": "Serbia",
			"population": 1197714,
			"is_capital": true,
			"is_eu": false
		},
		{
			"index": 114,
			"city": "Novi Sad",
			"x": 611.4114141561861,
			"y": 531.5517299560457,
			"lng": 19.8425,
			"lat": 45.2542,
			"country": "Serbia",
			"population": 260438,
			"is_capital": false,
			"is_eu": false
		},
		{
			"index": 115,
			"city": "Moscow",
			"x": 842.1120941795846,
			"y": 336.4451187679207,
			"lng": 37.6175,
			"lat": 55.7506,
			"country": "Russia",
			"population": 17332000,
			"is_capital": true,
			"is_eu": false
		},
		{
			"index": 116,
			"city": "Saint Petersburg",
			"x": 747.250310763381,
			"y": 243.82827139541416,
			"lng": 30.3086,
			"lat": 59.9375,
			"country": "Russia",
			"population": 5597763,
			"is_capital": false,
			"is_eu": false
		},
		{
			"index": 117,
			"city": "Nizhniy Novgorod",
			"x": 925.0475285171101,
			"y": 324.3157262370148,
			"lng": 44.0075,
			"lat": 56.3269,
			"country": "Russia",
			"population": 1204985,
			"is_capital": false,
			"is_eu": false
		},
		{
			"index": 118,
			"city": "Krasnodar",
			"x": 859.6232816613044,
			"y": 535.2339545566401,
			"lng": 38.9667,
			"lat": 45.0333,
			"country": "Russia",
			"population": 1138654,
			"is_capital": false,
			"is_eu": false
		},
		{
			"index": 119,
			"city": "Rostov",
			"x": 869.2705286633518,
			"y": 498.0881017555222,
			"lng": 39.71,
			"lat": 47.2225,
			"country": "Russia",
			"population": 1135968,
			"is_capital": false,
			"is_eu": false
		},
		{
			"index": 120,
			"city": "Voronezh",
			"x": 862.7888454226381,
			"y": 417.55348753494627,
			"lng": 39.2106,
			"lat": 51.6717,
			"country": "Russia",
			"population": 1051995,
			"is_capital": false,
			"is_eu": false
		},
		{
			"index": 121,
			"city": "Volgograd",
			"x": 931.6304474992687,
			"y": 471.9907855819322,
			"lng": 44.5147,
			"lat": 48.7086,
			"country": "Russia",
			"population": 1004763,
			"is_capital": false,
			"is_eu": false
		},
		{
			"index": 122,
			"city": "Yaroslavl",
			"x": 871.087580432875,
			"y": 296.49018546571847,
			"lng": 39.85,
			"lat": 57.6167,
			"country": "Russia",
			"population": 567443,
			"is_capital": false,
			"is_eu": false
		},
		{
			"index": 123,
			"city": "Ryazan",
			"x": 869.6923442527054,
			"y": 359.52686282975424,
			"lng": 39.7425,
			"lat": 54.63,
			"country": "Russia",
			"population": 520509,
			"is_capital": false,
			"is_eu": false
		},
		{
			"index": 124,
			"city": "Stockholm",
			"x": 588.207663059374,
			"y": 258.0152823460363,
			"lng": 18.0547,
			"lat": 59.3275,
			"country": "Sweden",
			"population": 995574,
			"is_capital": true,
			"is_eu": true
		},
		{
			"index": 125,
			"city": "Gothenburg",
			"x": 509.2022521205031,
			"y": 294.49441446709625,
			"lng": 11.9675,
			"lat": 57.7075,
			"country": "Sweden",
			"population": 674529,
			"is_capital": false,
			"is_eu": true
		},
		{
			"index": 126,
			"city": "Ljubljana",
			"x": 542.150592278444,
			"y": 518.1424802817879,
			"lng": 14.5061,
			"lat": 46.0514,
			"country": "Slovenia",
			"population": 284293,
			"is_capital": true,
			"is_eu": true
		},
		{
			"index": 127,
			"city": "Maribor",
			"x": 556.7804548113484,
			"y": 509.6572337154697,
			"lng": 15.6333,
			"lat": 46.55,
			"country": "Slovenia",
			"population": 96211,
			"is_capital": false,
			"is_eu": true
		},
		{
			"index": 128,
			"city": "Bratislava",
			"x": 575.9827983328458,
			"y": 481.982097580855,
			"lng": 17.1128,
			"lat": 48.1447,
			"country": "Slovakia",
			"population": 475503,
			"is_capital": true,
			"is_eu": true
		},
		{
			"index": 129,
			"city": "Košice",
			"x": 629.6792739105001,
			"y": 471.846455931406,
			"lng": 21.25,
			"lat": 48.7167,
			"country": "Slovakia",
			"population": 229040,
			"is_capital": false,
			"is_eu": true
		},
		{
			"index": 130,
			"city": "Serravalle",
			"x": 515.8760236911378,
			"y": 552.7349236165428,
			"lng": 12.4817,
			"lat": 43.9717,
			"country": "San Marino",
			"population": 10878,
			"is_capital": false,
			"is_eu": false
		},
		{
			"index": 131,
			"city": "Istanbul",
			"x": 729.6820159403334,
			"y": 599.9158620092394,
			"lng": 28.955,
			"lat": 41.0136,
			"country": "Turkey",
			"population": 14441000,
			"is_capital": false,
			"is_eu": false
		},
		{
			"index": 132,
			"city": "Ankara",
			"x": 780.2349919567125,
			"y": 616.6638758819137,
			"lng": 32.85,
			"lat": 39.93,
			"country": "Turkey",
			"population": 5864049,
			"is_capital": true,
			"is_eu": false
		},
		{
			"index": 133,
			"city": "Bursa",
			"x": 730.915015355367,
			"y": 612.7729840937209,
			"lng": 29.05,
			"lat": 40.1833,
			"country": "Turkey",
			"population": 3101833,
			"is_capital": false,
			"is_eu": false
		},
		{
			"index": 134,
			"city": "İzmir",
			"x": 706.1252376425855,
			"y": 639.5666209427322,
			"lng": 27.14,
			"lat": 38.42,
			"country": "Turkey",
			"population": 2965900,
			"is_capital": false,
			"is_eu": false
		},
		{
			"index": 135,
			"city": "Konya",
			"x": 775.4756142146825,
			"y": 647.8382265016689,
			"lng": 32.4833,
			"lat": 37.8667,
			"country": "Turkey",
			"population": 2320241,
			"is_capital": false,
			"is_eu": false
		},
		{
			"index": 136,
			"city": "Gaziantep",
			"x": 839.0192124890317,
			"y": 659.7463857435898,
			"lng": 37.3792,
			"lat": 37.0628,
			"country": "Turkey",
			"population": 2130432,
			"is_capital": false,
			"is_eu": false
		},
		{
			"index": 137,
			"city": "Diyarbakır",
			"x": 876.1493675051183,
			"y": 647.1931632369683,
			"lng": 40.24,
			"lat": 37.91,
			"country": "Turkey",
			"population": 1791373,
			"is_capital": false,
			"is_eu": false
		},
		{
			"index": 138,
			"city": "Adana",
			"x": 812.3098493711611,
			"y": 660.671290328808,
			"lng": 35.3213,
			"lat": 37.0,
			"country": "Turkey",
			"population": 1765981,
			"is_capital": false,
			"is_eu": false
		},
		{
			"index": 139,
			"city": "Kayseri",
			"x": 814.4669494004095,
			"y": 635.0175920443144,
			"lng": 35.4875,
			"lat": 38.7225,
			"country": "Turkey",
			"population": 1434357,
			"is_capital": false,
			"is_eu": false
		},
		{
			"index": 140,
			"city": "Samsun",
			"x": 825.4484315589352,
			"y": 595.5952958106633,
			"lng": 36.3336,
			"lat": 41.2903,
			"country": "Turkey",
			"population": 1356079,
			"is_capital": false,
			"is_eu": false
		},
		{
			"index": 141,
			"city": "Antalya",
			"x": 752.4276104124012,
			"y": 662.327727926584,
			"lng": 30.7075,
			"lat": 36.8874,
			"country": "Turkey",
			"population": 1344000,
			"is_capital": false,
			"is_eu": false
		},
		{
			"index": 142,
			"city": "Çankaya",
			"x": 780.6970422638196,
			"y": 616.7497333417185,
			"lng": 32.8856,
			"lat": 39.9244,
			"country": "Turkey",
			"population": 942553,
			"is_capital": false,
			"is_eu": false
		},
		{
			"index": 143,
			"city": "Keçiören",
			"x": 780.4517402749341,
			"y": 615.5900643297433,
			"lng": 32.8667,
			"lat": 40.0,
			"country": "Turkey",
			"population": 939279,
			"is_capital": false,
			"is_eu": false
		},
		{
			"index": 144,
			"city": "Osmangazi",
			"x": 731.0448047674759,
			"y": 612.5421173646249,
			"lng": 29.06,
			"lat": 40.1983,
			"country": "Turkey",
			"population": 891250,
			"is_capital": false,
			"is_eu": false
		},
		{
			"index": 145,
			"city": "Eskişehir",
			"x": 750.0018463000877,
			"y": 619.0116947630963,
			"lng": 30.5206,
			"lat": 39.7767,
			"country": "Turkey",
			"population": 820568,
			"is_capital": false,
			"is_eu": false
		},
		{
			"index": 146,
			"city": "Seyhan",
			"x": 812.4591071950862,
			"y": 660.9200593162634,
			"lng": 35.3328,
			"lat": 36.9831,
			"country": "Turkey",
			"population": 795012,
			"is_capital": false,
			"is_eu": false
		},
		{
			"index": 147,
			"city": "Kyiv",
			"x": 750.0368894413571,
			"y": 440.4096231552377,
			"lng": 30.5233,
			"lat": 50.45,
			"country": "Ukraine",
			"population": 2952301,
			"is_capital": true,
			"is_eu": false
		},
		{
			"index": 148,
			"city": "Kharkiv",
			"x": 824.11809008482,
			"y": 448.8166217677183,
			"lng": 36.2311,
			"lat": 49.9925,
			"country": "Ukraine",
			"population": 1421125,
			"is_capital": false,
			"is_eu": false
		},
		{
			"index": 149,
			"city": "Odesa",
			"x": 752.4353977771277,
			"y": 510.6482711370618,
			"lng": 30.7081,
			"lat": 46.492,
			"country": "Ukraine",
			"population": 1010537,
			"is_capital": false,
			"is_eu": false
		},
		{
			"index": 150,
			"city": "Dnipro",
			"x": 808.6588732085404,
			"y": 476.27622858933114,
			"lng": 35.04,
			"lat": 48.4675,
			"country": "Ukraine",
			"population": 968502,
			"is_capital": false,
			"is_eu": false
		},
		{
			"index": 151,
			"city": "Donetsk",
			"x": 844.549539338988,
			"y": 484.4789906559856,
			"lng": 37.8053,
			"lat": 48.0028,
			"country": "Ukraine",
			"population": 901645,
			"is_capital": false,
			"is_eu": false
		},
		{
			"index": 152,
			"city": "Vatican City",
			"x": 515.5035280783854,
			"y": 585.9466948444687,
			"lng": 12.453,
			"lat": 41.904,
			"country": "Vatican City",
			"population": 825,
			"is_capital": true,
			"is_eu": false
		},
		{
			"index": 153,
			"city": "Prizren",
			"x": 623.0561202105878,
			"y": 581.0392134581025,
			"lng": 20.7397,
			"lat": 42.2139,
			"country": "Kosovo",
			"population": 220128,
			"is_capital": false,
			"is_eu": false
		},
		{
			"index": 154,
			"city": "Pristina",
			"x": 628.6721080725358,
			"y": 573.8269021506485,
			"lng": 21.1724,
			"lat": 42.6666,
			"country": "Kosovo",
			"population": 198897,
			"is_capital": true,
			"is_eu": false
		},
		{
			"index": 155,
			"city": "Kaliningrad",
			"x": 619.3363556595496,
			"y": 358.09774455218167,
			"lng": 20.4531,
			"lat": 54.7003,
			"country": "Russia",
			"population": 489584,
			"is_capital": false,
			"is_eu": false
		},
		{
			"index": 156,
			"city": "Belfast",
			"x": 276.91165179877163,
			"y": 360.20295153423797,
			"lng": -5.93,
			"lat": 54.5967,
			"country": "United Kingdom",
			"population": 345006,
			"is_capital": false,
			"is_eu": false
		},
		{
			"index": 157,
			"city": "Venice",
			"x": 513.9317782977479,
			"y": 528.4485160007462,
			"lng": 12.3319,
			"lat": 45.4397,
			"country": "Italy",
			"population": 250369,
			"is_capital": false,
			"is_eu": true
		},
		{
			"index": 158,
			"city": "Cork",
			"x": 243.90490640538175,
			"y": 413.21436523314003,
			"lng": -8.4731,
			"lat": 51.9,
			"country": "Ireland",
			"population": 222333,
			"is_capital": false,
			"is_eu": true
		},
		{
			"index": 159,
			"city": "Trondheim",
			"x": 488.85776177244804,
			"y": 156.89187817708068,
			"lng": 10.4,
			"lat": 63.44,
			"country": "Norway",
			"population": 212660,
			"is_capital": false,
			"is_eu": false
		},
		{
			"index": 160,
			"city": "Irákleio",
			"x": 680.0946731500437,
			"y": 684.8453581034164,
			"lng": 25.1344,
			"lat": 35.3403,
			"country": "Greece",
			"population": 211370,
			"is_capital": false,
			"is_eu": true
		},
		{
			"index": 161,
			"city": "Dundee",
			"x": 315.3293177829775,
			"y": 321.47562030819233,
			"lng": -2.97,
			"lat": 56.4606,
			"country": "United Kingdom",
			"population": 148280,
			"is_capital": false,
			"is_eu": false
		},
		{
			"index": 162,
			"city": "Cagliari",
			"x": 472.2018865165253,
			"y": 627.5441071054875,
			"lng": 9.1167,
			"lat": 39.2167,
			"country": "Italy",
			"population": 148117,
			"is_capital": false,
			"is_eu": true
		},
		{
			"index": 163,
			"city": "Umeå",
			"x": 616.967698888564,
			"y": 146.60639763731172,
			"lng": 20.2706,
			"lat": 63.8285,
			"country": "Sweden",
			"population": 94243,
			"is_capital": false,
			"is_eu": true
		},
		{
			"index": 164,
			"city": "Galway",
			"x": 236.5237825387541,
			"y": 386.64388497506513,
			"lng": -9.0418,
			"lat": 53.2729,
			"country": "Ireland",
			"population": 83456,
			"is_capital": false,
			"is_eu": true
		},
		{
			"index": 165,
			"city": "Irákleio",
			"x": 662.3433752559228,
			"y": 645.1049053145614,
			"lng": 23.7667,
			"lat": 38.05,
			"country": "Greece",
			"population": 50494,
			"is_capital": false,
			"is_eu": true
		},
		{
			"index": 166,
			"city": "Dubrovnik",
			"x": 588.9033343082772,
			"y": 574.2473382151775,
			"lng": 18.1083,
			"lat": 42.6403,
			"country": "Croatia",
			"population": 41562,
			"is_capital": false,
			"is_eu": true
		},
		{
			"index": 167,
			"city": "Visby",
			"x": 591.4835478210002,
			"y": 296.2201255464694,
			"lng": 18.3071,
			"lat": 57.629,
			"country": "Sweden",
			"population": 26305,
			"is_capital": false,
			"is_eu": true
		},
		{
			"index": 168,
			"city": "Akureyri",
			"x": 118.95793726235749,
			"y": 95.4501151447248,
			"lng": -18.1,
			"lat": 65.6833,
			"country": "Iceland",
			"population": 19893,
			"is_capital": false,
			"is_eu": false
		},
		{
			"index": 169,
			"city": "Tórshavn",
			"x": 265.8367212635274,
			"y": 193.83887817704306,
			"lng": -6.7833,
			"lat": 62.0,
			"country": "Faroe Islands",
			"population": 13326,
			"is_capital": true,
			"is_eu": false
		}
	]
}
